careNm,careAddr,lat,lng,careTel,city
부산동물보호센터,부산광역시 강서구 맥도강변길 752-15(대저2동),35.151443,128.93962,051-832-7119,"중, 서, 영도, 북"
(사)유기동물 및 동물보호관리협회,부산광역시 강서구 가락대로1283번길25-2(봉림동),35.17892661,128.8997584,051-971-6208,부산진
누리동물병원,부산광역시 해운대구 송정2로 13번길 46(송정동),35.19480798,129.2063205,051-701-7599,"해운대, 수영, 동래, 남, 금정, 기장군"
청조동물병원,부산광역시 연제구 온천천남로 4(연산동) 영대빌딩 3층,35.19296227,129.091273,051-503-0688,연제
하얀비둘기,부산광역시 강서구 제도로 726(강동동),35.17721265,128.9167344,051-293-9779,"사하, 강서, 사상"
동구종합동물병원,부산광역시 동구 망양로 835-1,35.135833,129.045556,051-441-6383,동
